[
  {"name":"ドンムアン空港","latitude":13.913265,"longitude":100.604199},
  {"name":"シリサトーン","latitude":13.725511,"longitude":100.538587},
  {"name":"ピザハット","latitude":13.728398,"longitude":100.533354},
  {"name":"ガソリンスタンドのトイレ","latitude":13.735530,"longitude":100.520499},
  {"name":"船着き場","latitude":13.736238,"longitude":100.509283},
  {"name":"水上マーケット","latitude":13.722808,"longitude":100.478755},
  {"name":"ワットアルン","latitude":13.743705,"longitude":100.488926},
  {"name":"スパンニガーEating Room","latitude":13.744173,"longitude":100.491782},
  {"name":"ザ・オールド・サイアム・プラザ","latitude":13.745616,"longitude":100.500055},
  {"name":"メガプラザ","latitude":13.745398,"longitude":100.502357},
  {"name":"MBKセンター","latitude":13.744503,"longitude":100.529901},
  {"name":"マーケット","latitude":13.744634,"longitude":100.530812},
  {"name":"サイアムディスカバリー","latitude":13.746609,"longitude":100.531354},
  {"name":"サイアムパラゴン","latitude":13.746819,"longitude":100.535069},
  {"name":"パパイア","latitude":13.727663,"longitude":100.535487},
  {"name":"S&P","latitude":13.729176,"longitude":100.535498},
  {"name":"ルンピニー公園","latitude":13.731403,"longitude":100.541441},
  {"name":"ワットヤンナワー","latitude":13.717356,"longitude":100.513531},
  {"name":"アジアティーク","latitude":13.704707,"longitude":100.502641},
  {"name":"ヘルスランド","latitude":13.721311,"longitude":100.526438},
  {"name":"チャイナタウン","latitude":13.737274,"longitude":100.513019},
  {"name":"フアランポーン","latitude":13.739467,"longitude":100.516840},
  {"name":"トップスマーケット","latitude":13.727835,"longitude":100.534988},
  {"name":"成田空港","latitude":35.7742656,"longitude":140.3918626}
]
